City_ID,City,Lat,Lng,Max Temp,Humidity,Cloudiness,Wind Speed,Country,Date
0,olonkinbyen,70.9221,-8.7187,-0.01,73,8,5.48,SJ,1685112529
1,turbat,26.0023,63.044,35.99,41,4,7.08,PK,1685112529
2,albany,42.6001,-73.9662,17.93,45,0,1.34,US,1685112251
3,port elizabeth,-33.918,25.5701,17.83,58,0,7.2,ZA,1685112529
4,las tablas,7.7667,-80.2833,26.31,82,100,1.96,PA,1685112529
5,tuyum,9.9769,122.5582,27.55,82,58,2.55,PH,1685112529
6,mount pleasant,32.7941,-79.8626,17.22,76,75,5.66,US,1685112530
7,santana,-0.0583,-51.1817,31.1,74,75,4.63,BR,1685112530
8,masina,-4.3836,15.3914,28.19,78,75,2.06,CD,1685112494
9,czarnkow,52.9021,16.5641,18.24,40,10,5.75,PL,1685112447
10,edinburgh of the seven seas,-37.0676,-12.3116,15.89,84,55,11.67,SH,1685112530
11,porbandar,21.6422,69.6093,29.99,79,40,5.14,IN,1685112530
12,waitangi,-43.9535,-176.5597,14.34,82,14,4.02,NZ,1685112530
13,mata-utu,-13.2816,-176.1745,26.8,82,100,8.52,WF,1685112530
14,thompson,55.7435,-97.8558,4.09,100,100,6.17,CA,1685112530
15,bredasdorp,-34.5322,20.0403,14.64,58,30,1.86,ZA,1685112530
16,college,64.8569,-147.8028,13.18,83,75,3.09,US,1685112531
17,letlhakane,-21.4167,25.5833,27.35,21,0,3.08,BW,1685112531
18,adamstown,-25.066,-130.1015,22.45,69,0,2.66,PN,1685112531
19,mimizan,44.2006,-1.2289,27.18,56,7,3.25,FR,1685112531
20,papatowai,-46.5619,169.4708,10.41,63,12,6.64,NZ,1685112531
21,arraial do cabo,-22.9661,-42.0278,25.98,65,40,10.29,BR,1685112531
22,vorkuta,67.5,64.0,22.59,49,47,9.08,RU,1685112531
23,kudahuvadhoo,2.6708,72.8944,28.53,73,13,3.76,MV,1685112531
24,bethel,41.3712,-73.414,20.11,42,0,4.47,US,1685112531
25,thunder bay,48.4001,-89.3168,11.99,54,20,1.03,CA,1685112273
26,badger,64.8,-147.5333,13.14,81,100,3.09,US,1685112532
27,klyuchi,52.2667,79.1667,13.5,37,0,4.97,RU,1685112532
28,keflavik,64.0049,-22.5624,8.95,100,100,10.8,IS,1685112532
29,sumbe,-11.2061,13.8437,26.32,75,3,3.78,AO,1685112532
30,opuwo,-18.0607,13.84,29.86,15,0,4.69,NA,1685112532
31,collie,-33.3667,116.15,6.67,80,0,0.63,AU,1685112532
32,blackmans bay,-43.0167,147.3167,9.74,80,32,3.55,AU,1685112532
33,port-aux-francais,-49.35,70.2167,4.96,99,98,9.37,TF,1685112532
34,hawaiian paradise park,19.5933,-154.9731,20.02,97,100,0.0,US,1685112532
35,grytviken,-54.2811,-36.5092,3.33,77,90,4.03,GS,1685112533
36,ola,59.5833,151.2833,1.38,94,91,1.35,RU,1685112331
37,ilulissat,69.2167,-51.1,0.01,74,75,1.54,GL,1685112533
38,longyearbyen,78.2186,15.6401,0.91,64,40,5.66,SJ,1685112533
39,bonthe,7.5264,-12.505,29.04,70,94,4.07,SL,1685112533
40,lihue,21.9789,-159.3672,22.77,76,40,6.17,US,1685112533
41,tiksi,71.6872,128.8694,0.58,92,99,6.08,RU,1685112534
42,georgetown,5.4112,100.3354,28.97,76,40,1.54,MY,1685112413
43,port augusta,-32.5,137.7667,13.09,63,100,1.92,AU,1685112534
44,touros,-5.1989,-35.4608,30.18,59,97,7.95,BR,1685112534
45,puerto leguizamo,-0.1934,-74.7819,23.96,96,96,1.4,CO,1685112534
46,punta arenas,-53.15,-70.9167,2.06,87,20,10.29,CL,1685112436
47,weno,7.4515,151.8468,28.09,74,100,3.35,FM,1685112534
48,olyokminsk,60.3736,120.4264,4.95,47,26,2.21,RU,1685112534
49,sisimiut,66.9395,-53.6735,1.83,67,100,12.28,GL,1685112535
50,lebu,-37.6167,-73.65,12.07,77,100,4.51,CL,1685112445
51,sola,-13.8833,167.55,25.58,65,70,5.4,VU,1685112384
52,aasiaat,68.7098,-52.8699,-0.41,81,100,3.91,GL,1685112535
53,anadyr,64.75,177.4833,0.28,93,75,2.0,RU,1685112535
54,whitehorse,60.7161,-135.0538,9.43,79,75,5.14,CA,1685112492
55,enewetak,11.3474,162.3373,27.78,79,100,7.87,MH,1685112535
56,murzuq,25.9155,13.9184,35.17,8,55,7.76,LY,1685112535
57,kemijarvi,66.7131,27.4306,11.2,34,98,5.8,FI,1685112535
58,el granada,37.5027,-122.4694,14.23,85,100,2.57,US,1685112535
59,manga,11.6636,-1.0731,40.64,20,90,1.83,BF,1685112536
60,ormara,25.2088,64.6357,28.59,88,0,7.91,PK,1685112536
61,ushuaia,-54.8,-68.3,2.79,87,75,11.32,AR,1685112422
62,dudinka,69.4058,86.1778,3.68,93,95,6.81,RU,1685112536
63,sitka,57.0531,-135.33,8.94,76,75,3.6,US,1685112536
64,dunedin,-45.8742,170.5036,10.45,80,56,0.89,NZ,1685112536
65,east london,-33.0153,27.9116,18.52,42,0,8.23,ZA,1685112536
66,puerto natales,-51.7236,-72.4875,1.25,86,75,7.2,CL,1685112436
67,uturoa,-16.7333,-151.4333,27.45,76,30,8.19,PF,1685112536
68,west island,-12.1568,96.8225,26.99,78,75,7.72,CC,1685112536
69,hilo,19.7297,-155.09,21.27,96,100,1.79,US,1685112536
70,nar'yan-mar,67.6713,53.087,16.66,73,77,5.88,RU,1685112537
71,chul'man,56.8479,124.9104,5.43,73,100,6.64,RU,1685112537
72,invercargill,-46.4,168.35,9.92,67,44,5.85,NZ,1685112363
73,kaspiyskiy,45.3929,47.3707,21.52,70,36,7.28,RU,1685112537
74,swan hill,-35.3378,143.5544,11.48,62,60,2.79,AU,1685112380
75,howard springs,-12.497,131.047,25.95,62,97,0.71,AU,1685112537
76,marsh harbour,26.5412,-77.0636,27.3,67,79,2.42,BS,1685112537
77,chibougamau,49.9168,-74.3659,11.79,47,75,1.54,CA,1685112537
78,chonchi,-42.6128,-73.8092,3.56,80,80,3.48,CL,1685112537
79,kapuskasing,49.4169,-82.4331,17.0,29,40,6.17,CA,1685112537
80,fort myers shores,26.7092,-81.7459,29.44,78,0,4.12,US,1685112538
81,polyarnyy,69.1989,33.4478,10.06,39,100,6.67,RU,1685112538
82,acarau,-2.8856,-40.12,26.29,81,100,3.71,BR,1685112538
83,port mathurin,-19.6833,63.4167,25.17,77,90,9.0,MU,1685112538
84,fale old settlement,-9.3852,-171.2468,27.73,76,96,2.83,TK,1685112538
85,graaff-reinet,-32.2522,24.5308,11.62,57,0,2.34,ZA,1685112538
86,utrik,11.2278,169.8474,27.64,80,100,8.79,MH,1685112538
87,fort bragg,35.139,-79.006,18.69,40,0,7.72,US,1685112491
88,verdal,63.7933,11.4817,6.02,73,86,6.9,NO,1685112538
89,kingston,17.997,-76.7936,30.69,69,20,3.6,JM,1685112326
90,entebbe,0.0644,32.4469,26.18,61,20,6.17,UG,1685112539
91,kayangel,8.0823,134.7173,28.89,80,100,12.26,PW,1685112539
92,atafu village,-8.5421,-172.5159,28.32,71,100,3.31,TK,1685112539
93,moyale,3.5167,39.0584,22.16,72,97,2.72,KE,1685112539
94,minab,27.1467,57.0801,31.81,53,1,3.49,IR,1685112539
95,araruna,-6.5583,-35.7417,29.24,49,45,5.82,BR,1685112539
96,waajid,3.8096,43.2463,30.1,44,100,4.18,SO,1685112539
97,la passe,45.5549,-0.8967,28.13,53,0,3.66,FR,1685112539
98,saudarkrokur,65.7461,-19.6394,7.26,85,100,4.98,IS,1685112539
99,port blair,11.6667,92.75,28.91,77,12,4.13,IN,1685112540
100,vorgashor,67.5833,63.95,22.33,50,52,9.36,RU,1685112540
101,mahajanga,-15.7167,46.3167,30.01,58,20,2.57,MG,1685112540
102,kavaratti,10.5669,72.642,29.82,71,84,3.52,IN,1685112540
103,pisco,-13.7,-76.2167,22.03,73,100,3.09,PE,1685112540
104,loralai,30.3705,68.598,28.82,9,0,3.47,PK,1685112540
105,ugoofaaru,5.6667,73.0,29.58,71,9,4.67,MV,1685112540
106,mount gambier,-37.8333,140.7667,11.08,74,90,3.31,AU,1685112540
107,puerto ayora,-0.7393,-90.3518,28.98,92,78,3.13,EC,1685112540
108,talara,-4.5772,-81.2719,25.42,78,0,8.23,PE,1685112541
109,nyaunglebin,17.95,96.7333,27.56,80,38,4.04,MM,1685112541
110,nadym,65.5333,72.5167,19.64,53,95,5.33,RU,1685112541
111,laojunmiao,39.8333,97.7333,13.32,20,100,2.82,CN,1685112541
112,luebo,-5.35,21.4167,31.18,50,100,0.94,CD,1685112541
113,tondano,1.3038,124.9112,21.05,91,100,1.05,ID,1685112541
114,udachny,66.4167,112.4,4.14,69,100,3.94,RU,1685112542
115,vilyuchinsk,52.9306,158.4028,5.15,78,100,3.06,RU,1685112542
116,howrah,22.5892,88.3103,23.0,88,40,2.06,IN,1685112327
117,maloye ganyushkino,46.6,49.2667,27.63,34,100,9.63,KZ,1685112544
118,barreiras,-12.1528,-44.99,31.64,37,18,4.17,BR,1685112527
119,flying fish cove,-10.4217,105.6791,24.82,94,75,4.12,CX,1685112545
120,petropavlovka,50.6114,105.3196,6.97,57,82,1.94,RU,1685112545
121,hermanus,-34.4187,19.2345,15.45,58,6,6.06,ZA,1685112546
122,swakopmund,-22.6833,14.5333,22.47,78,76,4.02,NA,1685112549
123,kloulklubed,7.0419,134.2556,24.28,83,100,11.09,PW,1685112549
124,iskateley,67.6803,53.1512,16.56,73,79,5.87,RU,1685112550
125,constantia,44.1833,28.65,21.5,78,70,3.34,RO,1685112551
126,sambava,-14.2667,50.1667,24.18,83,1,6.14,MG,1685112552
127,urangan,-25.3,152.9,16.6,53,0,7.69,AU,1685112552
128,ribeira grande,38.5167,-28.7,21.22,60,20,6.69,PT,1685112553
129,crane,31.3974,-102.3501,21.87,74,77,8.58,US,1685112553
130,vilcun,-38.65,-72.2333,6.41,88,100,3.24,CL,1685112554
131,hithadhoo,-0.6,73.0833,26.67,79,98,9.05,MV,1685112554
132,juegang,32.3174,121.1855,20.93,93,100,3.96,CN,1685112555
133,chiguayante,-36.9167,-73.0167,12.29,82,75,3.09,CL,1685112555
134,tsiombe,-25.3,45.4833,21.86,76,0,4.53,MG,1685112555
135,bilibino,68.0546,166.4372,5.75,52,92,2.96,RU,1685112556
136,iqaluit,63.7506,-68.5145,-4.15,85,100,16.99,CA,1685112557
137,strezhevoy,60.7333,77.5889,13.96,42,100,2.84,RU,1685112558
138,yuanlin,30.4151,112.8859,22.53,98,95,1.95,CN,1685112558
139,yellowknife,62.456,-114.3525,10.29,76,75,1.54,CA,1685112558
140,beckum,51.75,8.0333,18.66,49,0,4.77,DE,1685112559
141,robore,-18.3333,-59.75,25.05,83,66,5.14,BO,1685112559
142,calingasta,-31.3308,-69.4078,13.62,27,0,1.17,AR,1685112560
143,hammerfest,70.6634,23.6821,4.25,81,75,11.32,NO,1685112560
144,freetown,8.484,-13.2299,27.54,76,79,3.23,SL,1685112561
145,ingeniero jacobacci,-41.3427,-69.5448,3.97,47,2,10.13,AR,1685112561
146,talnakh,69.4865,88.3972,3.45,96,96,4.99,RU,1685112561
147,champerico,14.3,-91.9167,28.3,68,93,0.24,GT,1685112563
148,nagato,34.3833,131.2,19.47,87,100,4.76,JP,1685112564
149,cole harbour,44.6724,-63.4751,10.52,73,100,6.17,CA,1685112564
150,new norfolk,-42.7826,147.0587,10.4,70,69,0.45,AU,1685112565
151,mudanjiang,44.5833,129.6,12.29,86,7,1.49,CN,1685112565
152,tura,25.5198,90.2201,23.63,76,4,1.49,IN,1685112565
153,turpan,42.9333,89.1667,27.39,19,24,2.51,CN,1685112565
154,hirara,24.8,125.2833,23.92,73,20,4.63,JP,1685112566
155,isafjordur,66.0755,-23.124,5.02,75,100,2.06,IS,1685112566
156,otse,-25.0167,25.7333,20.14,19,36,0.75,BW,1685112567
157,fort wayne,41.1306,-85.1289,18.03,46,8,4.92,US,1685112288
158,chato,-2.6378,31.7669,25.29,62,63,2.01,TZ,1685112567
159,guerrero negro,27.9769,-114.0611,16.49,69,62,7.5,MX,1685112568
160,remire-montjoly,4.9167,-52.2667,26.02,89,75,2.57,GF,1685112569
161,kismayo,-0.3582,42.5454,27.3,72,38,5.92,SO,1685112569
162,luderitz,-26.6481,15.1594,16.51,53,38,10.01,NA,1685112569
163,lycksele,64.5954,18.6735,9.93,40,20,6.69,SE,1685112570
164,grand baie,-20.0182,57.5802,21.26,85,100,0.89,MU,1685112571
165,avarua,-21.2078,-159.775,21.03,100,61,1.03,CK,1685112571
166,gurupi,-11.7292,-49.0686,31.85,38,26,5.35,BR,1685112573
167,box elder,41.5005,-112.8764,15.81,63,48,1.16,US,1685112573
168,quellon,-43.1167,-73.6167,4.14,87,75,4.12,CL,1685112436
169,wailua homesteads,22.0669,-159.378,22.44,77,40,6.17,US,1685112573
170,pangody,65.85,74.4859,14.51,45,81,8.89,RU,1685112574
171,kapsan-up,41.0903,128.2933,10.06,85,6,1.08,KP,1685112574
172,tinajo,29.0788,-13.7081,20.49,78,40,4.63,ES,1685112575
173,kuruman,-27.4524,23.4325,15.0,17,62,2.31,ZA,1685112575
174,grand falls-windsor,48.9332,-55.6649,6.39,94,100,1.79,CA,1685112576
175,son tay,21.1378,105.505,27.96,88,99,4.13,VN,1685112577
176,kuchera,26.9839,73.9719,35.06,34,0,8.71,IN,1685112578
177,fort st. john,56.2499,-120.8529,11.94,82,20,4.63,CA,1685112580
178,nadi,-17.8,177.4167,18.0,88,20,1.54,FJ,1685112581
179,levuka,50.1834,-105.4011,12.9,100,100,3.09,CA,1685112581
180,florida,28.7505,-82.5001,26.66,79,100,4.63,US,1685112581
181,juneau,58.3019,-134.4197,11.0,93,100,5.66,US,1685112581
182,barentu,15.1139,37.5928,36.68,17,82,6.68,ER,1685112582
183,jamestown,42.097,-79.2353,16.12,42,0,3.6,US,1685112373
184,luganville,-15.5333,167.1667,22.91,71,52,1.9,VU,1685112582
185,undurkhaan,47.3194,110.6556,12.37,34,100,3.08,MN,1685112583
186,okha,53.5739,142.9478,3.94,96,100,1.34,RU,1685112584
187,arica,-18.475,-70.3042,20.13,68,100,3.09,CL,1685112584
188,korla,41.7597,86.1469,20.87,35,88,6.41,CN,1685112393
189,zeya,53.75,127.2667,6.69,99,100,0.47,RU,1685112584
190,wicklow,53.0,-6.4167,15.92,69,14,2.91,IE,1685112584
191,hamilton,39.1834,-84.5333,20.34,50,0,3.13,US,1685112445
192,mushie,-3.0167,16.9,31.73,54,86,1.14,CD,1685112585
193,pedra azul,-16.0053,-41.2972,23.05,65,86,4.35,BR,1685112492
194,salekhard,66.53,66.6019,23.9,47,46,8.39,RU,1685112585
195,mambajao,9.2504,124.7156,27.38,83,97,5.28,PH,1685112585
196,port lincoln,-34.7333,135.8667,14.04,70,100,5.4,AU,1685112585
197,majene,-3.5403,118.9707,25.89,87,100,2.12,ID,1685112585
198,oranjemund,-28.55,16.4333,14.47,63,3,7.03,NA,1685112585
199,dwarka,22.2394,68.9678,28.47,86,5,9.48,IN,1685112585
200,nyurba,63.2842,118.3319,4.15,63,11,2.33,RU,1685112585
201,ladario,-19.0047,-57.6017,30.05,69,0,4.12,BR,1685112586
202,magadan,59.5667,150.8,1.0,94,68,0.6,RU,1685112586
203,sinop,41.7711,34.8709,15.59,97,98,2.34,TR,1685112441
204,shagonar,51.5333,92.8,8.13,69,87,2.54,RU,1685112586
205,sandnessjoen,66.0217,12.6316,6.29,88,75,3.13,NO,1685112586
206,qaryat suluq,31.6682,20.2521,24.15,53,0,9.64,LY,1685112586
207,yaren,-0.5472,166.916,28.41,74,79,3.17,NR,1685112586
208,daru,-9.0763,143.2092,25.3,88,92,6.36,PG,1685112586
209,stanley,54.868,-1.6985,18.21,76,20,4.63,GB,1685112587
210,qutqashen,40.9814,47.8458,25.11,61,31,0.51,AZ,1685112587
211,anchorage,61.2181,-149.9003,9.92,93,100,5.14,US,1685112581
212,zhatay,62.1594,129.8294,7.03,53,0,4.02,RU,1685112587
213,porto novo,6.4965,2.6036,30.9,63,21,4.77,BJ,1685112587
214,mugia,43.1041,-9.2179,19.39,71,44,8.16,ES,1685112587
215,tolanaro,-25.0319,46.9987,23.04,83,40,9.26,MG,1685112587
216,cafayate,-26.073,-65.9761,22.49,14,96,0.5,AR,1685112587
217,segovia,41.1667,-4.0,14.68,68,100,5.5,ES,1685112588
218,asha,54.9973,57.2722,27.32,34,83,0.89,RU,1685112588
219,shambu,9.5667,37.1,19.6,53,97,0.68,ET,1685112588
220,qashyr,53.0675,76.1036,13.33,42,0,4.26,KZ,1685112588
221,cannonvale,-20.2833,148.7,19.66,82,2,1.05,AU,1685112588
222,preobrazheniye,42.9019,133.9064,11.04,87,29,2.55,RU,1685112588
223,horsham,51.064,-0.3272,20.41,38,0,6.69,GB,1685112588
224,kimbe,-5.5502,150.1429,24.54,94,99,1.01,PG,1685112589
225,mont-dore,-22.2833,166.5833,21.67,99,43,3.73,NC,1685112589
226,saipan,15.1355,145.701,25.92,100,100,3.58,MP,1685112589
227,aleksandrov gay,50.147,48.5704,28.15,33,98,7.59,RU,1685112589
228,gadzhiyevo,69.2551,33.3362,10.3,36,100,7.03,RU,1685112589
229,maceio,-9.6658,-35.7353,28.69,74,75,5.66,BR,1685112589
230,westport,41.1415,-73.3579,20.69,36,0,4.02,US,1685112307
231,gamba,-2.65,10.0,27.01,79,100,4.67,GA,1685112589
232,tazovsky,67.4667,78.7,8.25,79,95,6.22,RU,1685112590
233,buka,40.8108,69.1986,23.89,23,0,0.84,UZ,1685112590
234,ntungamo,-0.8833,29.65,24.85,68,75,1.31,UG,1685112590
235,sigli,5.3848,95.9609,26.93,83,100,3.14,ID,1685112590
236,fukura,34.25,134.7167,20.0,77,40,7.72,JP,1685112590
237,afaahiti,-17.75,-149.2833,23.93,75,69,6.18,PF,1685112590
238,kailua-kona,19.6406,-155.9956,22.98,87,40,1.54,US,1685112590
239,decatur,39.8403,-88.9548,16.86,48,0,5.66,US,1685112352
240,antofagasta,-23.65,-70.4,16.6,56,100,3.77,CL,1685112590
241,lagunas,-5.2269,-75.6753,28.72,73,79,0.25,PE,1685112591
242,eastham,41.8301,-69.9739,17.18,67,0,3.6,US,1685112591
243,elliot lake,46.3834,-82.6331,16.88,37,89,2.36,CA,1685112591
244,ancud,-41.8697,-73.8203,8.32,70,76,7.16,CL,1685112591
245,zarate,-34.0981,-59.0286,18.31,10,100,0.94,AR,1685112591
246,kodiak,57.79,-152.4072,5.73,75,100,1.54,US,1685112591
247,atar,20.5169,-13.0499,28.59,48,100,3.63,MR,1685112541
248,kerikeri,-35.2268,173.9474,10.51,94,100,1.64,NZ,1685112592
249,altai,46.3722,96.2583,6.58,57,93,3.16,MN,1685112592
250,querendaro,19.8667,-100.9167,20.02,60,0,1.03,MX,1685112592
251,zhigalovo,54.8097,105.1578,4.02,78,100,1.01,RU,1685112592
252,al kharj,24.155,47.3346,41.32,12,11,2.45,SA,1685112592
253,ust-nera,64.5667,143.2,1.69,75,45,1.48,RU,1685112592
254,itaguai,-22.8522,-43.7753,27.79,57,20,4.63,BR,1685112592
255,kiomboi,-4.2667,34.3667,23.39,45,23,2.89,TZ,1685112592
256,garoowe,8.4054,48.4845,30.7,46,100,5.36,SO,1685112593
257,necochea,-38.5473,-58.7368,16.83,61,93,6.66,AR,1685112409
258,piti village,13.4626,144.6933,27.22,88,100,5.6,GU,1685112593
259,balkashino,52.5167,68.7667,15.95,49,4,2.39,KZ,1685112593
260,fort mcmurray,56.7268,-111.381,13.77,71,40,1.54,CA,1685112301
261,goundam,16.4145,-3.6708,41.77,11,49,6.94,ML,1685112593
262,susuman,62.7833,148.1667,1.05,75,79,2.47,RU,1685112593
263,karratha,-20.7377,116.8463,21.69,31,6,5.92,AU,1685112593
264,sychevka,55.8252,34.2736,19.29,69,92,1.23,RU,1685112593
265,yuzhno-kurilsk,44.0306,145.8556,10.04,88,100,6.15,RU,1685112594
266,callao,-12.0667,-77.15,24.16,64,0,3.6,PE,1685112594
267,petauke,-14.2426,31.3253,24.02,37,3,2.12,ZM,1685112594
268,ghat,24.9647,10.1728,33.57,9,93,7.5,LY,1685112594
269,togur,58.3631,82.8265,10.15,46,33,2.86,RU,1685112594
270,cidreira,-30.1811,-50.2056,25.2,57,38,4.05,BR,1685112594
271,haiku-pauwela,20.9219,-156.3051,22.25,80,0,4.12,US,1685112594
272,bom jesus,-9.0744,-44.3586,32.84,39,58,4.69,BR,1685112594
273,mount pearl,47.5166,-52.7813,7.14,96,100,10.29,CA,1685112594
274,minas de marcona,-15.2119,-75.1103,16.3,76,100,6.13,PE,1685112595
275,east ballina,-28.8667,153.5833,13.06,69,14,6.41,AU,1685112595
276,walvis bay,-22.9575,14.5053,22.53,49,0,5.14,NA,1685112595
277,vuktyl,63.8567,57.3094,22.86,50,70,6.72,RU,1685112595
278,ongjin,37.9347,125.3619,15.84,78,100,1.24,KP,1685112595
279,mossel bay,-34.1831,22.146,16.96,50,38,1.49,ZA,1685112595
280,port saint lucie,27.2939,-80.3503,28.35,64,77,1.34,US,1685112432
281,minden,52.2833,8.9167,18.88,51,20,3.6,DE,1685112595
282,san luis de la loma,17.2706,-100.8939,29.19,67,100,1.79,MX,1685112595
283,saldanha,-33.0117,17.9442,15.03,59,37,4.57,ZA,1685112596
284,petropavlovsk-kamchatsky,53.0452,158.6483,4.33,75,40,2.0,RU,1685112596
285,abilene,32.4487,-99.7331,21.71,77,0,5.14,US,1685112417
286,freguesia do ribeirao da ilha,-27.7177,-48.5627,25.31,82,75,5.66,BR,1685112596
287,svetlyy,54.675,20.1347,14.03,64,72,5.6,RU,1685112596
288,sanctuary point,-35.1114,150.629,7.77,70,14,2.73,AU,1685112596
289,nemuro,43.3236,145.575,9.38,95,100,7.32,JP,1685112596
290,xining,36.6167,101.7667,13.78,61,100,0.23,CN,1685112596
291,alice springs,-23.7,133.8833,2.75,70,0,3.86,AU,1685112597
292,tual,-5.6667,132.75,27.07,73,12,6.22,ID,1685112597
293,placido de castro,-10.3353,-67.1856,27.09,75,92,0.46,BR,1685112597
294,fredonia,42.4401,-79.3317,17.25,41,0,3.09,US,1685112597
295,belyy yar,53.6039,91.3903,9.94,46,0,3.0,RU,1685112597
296,masjed soleyman,31.9364,49.3039,34.99,22,100,7.43,IR,1685112597
297,santa rosalia,27.3167,-112.2833,23.94,29,85,1.6,MX,1685112597
298,luba,3.4568,8.5547,29.94,81,65,4.23,GQ,1685112597
299,kabul,34.5,69.4167,17.1,21,0,1.52,AF,1685112493
300,saint croix,17.7397,-64.7388,30.25,66,40,4.63,VI,1685112598
301,almeirim,-1.5233,-52.5817,30.69,60,98,2.14,BR,1685112598
302,vladimiro-aleksandrovskoye,42.8944,133.0778,11.16,87,55,0.39,RU,1685112598
303,malango,-2.9627,119.9001,20.17,99,98,0.47,ID,1685112598
304,burang,30.25,81.1667,2.43,84,85,2.69,CN,1685112598
305,taksimo,56.3444,114.8794,5.42,74,100,2.02,RU,1685112598
306,sinabang,2.4803,96.3801,26.89,84,90,2.9,ID,1685112598
307,konarka,19.9,86.1167,29.22,87,41,6.14,IN,1685112598
308,ludza,56.55,27.7167,18.6,38,8,3.53,LV,1685112598
309,ilheus,-14.7889,-39.0494,28.9,74,75,8.23,BR,1685112599
310,zapatoca,6.8153,-73.2677,18.42,78,100,1.45,CO,1685112599
311,chizhou,30.6578,117.4831,22.7,96,100,1.26,CN,1685112599
312,idri,27.5,13.2667,34.49,10,3,11.19,LY,1685112599
313,fisterra,42.9049,-9.2629,19.3,70,67,3.65,ES,1685112599
314,isangel,-19.55,169.2667,21.1,70,2,2.43,VU,1685112599
315,vila velha,-20.3297,-40.2925,25.97,80,75,3.6,BR,1685112438
316,lompoc,34.6391,-120.4579,13.34,80,0,0.89,US,1685112599
317,elko,41.0002,-115.5012,7.01,62,95,0.47,US,1685112496
318,port macquarie,-31.4333,152.9167,13.27,83,97,6.91,AU,1685112428
319,ridgecrest,35.6225,-117.6709,17.48,51,0,2.06,US,1685112383
320,yoichi,43.2039,140.7703,13.6,92,98,2.95,JP,1685112600
321,morinville,53.8001,-113.652,15.48,64,0,2.57,CA,1685112600
322,grande prairie,55.1667,-118.8027,10.1,93,20,1.03,CA,1685112492
323,eirunepe,-6.6603,-69.8736,29.39,66,97,0.61,BR,1685112600
324,caluula,11.9661,50.7569,30.47,74,6,2.58,SO,1685112601
325,tekkali,18.6167,84.2333,29.47,82,33,3.56,IN,1685112601
326,san patricio,28.017,-97.5169,28.92,58,5,5.2,US,1685112601
327,sao jose da coroa grande,-8.8978,-35.1478,27.8,76,23,4.9,BR,1685112602
328,gonabad,34.3529,58.6837,33.04,14,0,0.0,IR,1685112603
329,mitu,1.1983,-70.1733,26.16,88,100,0.38,CO,1685112603
330,abepura,-2.6333,140.5833,25.45,89,40,1.03,ID,1685112604
331,le lorrain,14.8329,-61.0567,32.09,29,100,4.89,MQ,1685112606
332,hami,42.8,93.45,22.07,20,91,4.05,CN,1685112607
333,newman,37.3138,-121.0208,15.19,79,2,1.79,US,1685112608
334,pontes e lacerda,-15.2261,-59.3353,30.77,51,28,2.14,BR,1685112493
335,hun,29.1268,15.9477,34.45,12,17,9.67,LY,1685112609
336,kenai,60.5544,-151.2583,6.75,100,100,4.63,US,1685112610
337,khandyga,62.6667,135.6,2.63,95,91,1.83,RU,1685112610
338,sao joao da barra,-21.6403,-41.0511,25.05,68,32,5.01,BR,1685112611
339,solleftea,63.1667,17.2667,10.92,39,99,6.21,SE,1685112613
340,inhambane,-23.865,35.3833,24.99,69,20,6.17,MZ,1685112613
341,griffith,41.5284,-87.4237,18.97,49,11,0.89,US,1685112615
342,waddan,29.1614,16.139,34.14,13,13,8.84,LY,1685112616
343,edna,28.9786,-96.6461,28.39,76,45,3.64,US,1685112616
344,gornyy,55.1153,83.9059,7.64,56,94,2.3,RU,1685112617
345,tateyama,34.9833,139.8667,18.86,74,100,4.18,JP,1685112617
346,huangpi,30.8845,114.3779,22.06,100,100,2.0,CN,1685112618
347,brookings,44.3114,-96.7984,21.72,48,0,1.34,US,1685112618
348,halmstad,56.6745,12.8568,15.73,51,0,8.23,SE,1685112619
349,onokhoy,51.932,108.0747,3.86,88,1,1.93,RU,1685112619
350,iquique,-20.2208,-70.1431,20.02,64,76,4.21,CL,1685112570
351,guiuan,11.0333,125.7247,28.23,79,52,3.81,PH,1685112620
352,glenvale,-27.5648,151.9076,5.49,84,0,1.34,AU,1685112620
353,malvan,16.0667,73.4667,29.42,75,0,4.35,IN,1685112620
354,vel'sk,61.0701,42.0983,17.62,64,66,3.55,RU,1685112621
355,stettler,52.3168,-112.7186,10.42,87,9,1.03,CA,1685112621
356,mogadishu,2.0371,45.3438,28.93,79,75,3.6,SO,1685112622
357,abergavenny,51.821,-3.0174,21.21,64,11,4.75,GB,1685112623
358,puerto deseado,-47.7503,-65.8938,5.31,59,11,7.5,AR,1685112624
359,george,-33.963,22.4617,15.75,48,0,4.12,ZA,1685112625
360,sausset-les-pins,43.3314,5.1043,28.18,47,0,6.69,FR,1685112631
361,seaside,36.6111,-121.8516,13.41,86,100,1.54,US,1685112401
362,katpur,21.05,71.7833,30.13,69,0,8.88,IN,1685112631
363,pacasmayo,-7.4006,-79.5714,23.95,74,58,5.63,PE,1685112632
364,parambu,-6.2111,-40.6944,32.5,35,9,4.81,BR,1685112632
365,timbuktu,16.7735,-3.0074,41.68,11,15,6.86,ML,1685112633
366,al bardiyah,31.7561,25.0865,29.81,35,10,3.79,LY,1685112634
367,victoria falls,-17.9235,25.843,32.06,20,0,2.57,ZW,1685112634
368,berdigestyakh,62.0989,126.6992,2.99,73,0,3.19,RU,1685112635
369,shimoda,34.6667,138.95,15.06,79,88,0.64,JP,1685112636
370,al manshah,26.4769,31.8035,39.14,9,0,4.63,EG,1685112638
371,katsuura,35.1333,140.3,18.35,74,100,3.97,JP,1685112638
372,craig,40.5153,-107.5464,13.79,66,0,0.0,US,1685112638
373,san antonio de pale,-1.4014,5.6325,26.42,84,100,5.45,GQ,1685112640
374,ust-tsilma,65.441,52.1498,18.49,70,85,3.84,RU,1685112640
375,bembereke,10.2283,2.6634,36.73,32,37,3.12,BJ,1685112640
376,zag,46.9441,99.165,5.4,67,65,0.66,MN,1685112641
377,san felipe,10.3399,-68.7425,26.05,76,100,2.78,VE,1685112641
378,phang nga,8.4509,98.5298,27.02,89,96,1.72,TH,1685112643
379,punta del este,-34.9667,-54.95,18.06,98,100,7.6,UY,1685112643
380,qaqortoq,60.7167,-46.0333,1.3,90,72,1.65,GL,1685112643
381,arrah,25.5667,84.6667,24.94,58,16,5.55,IN,1685112644
382,taos,36.4072,-105.5731,19.0,54,0,2.06,US,1685112554
383,souillac,-20.5167,57.5167,21.21,94,75,2.06,MU,1685112645
384,reggane,26.7158,0.1714,37.13,6,50,3.65,DZ,1685112645
385,nova sintra,14.8667,-24.7167,21.29,79,91,5.77,CV,1685112645
386,diego de almagro,-26.3667,-70.05,22.29,18,100,1.51,CL,1685112645
387,sokoni,-6.4333,39.55,28.92,69,31,6.98,TZ,1685112645
388,altay,47.8667,88.1167,11.06,62,52,2.69,CN,1685112646
389,coronel suarez,-37.4547,-61.9334,15.49,45,0,5.26,AR,1685112500
390,contamana,-7.3333,-75.0167,30.02,63,47,0.36,PE,1685112646
391,melilla,35.2937,-2.9383,24.11,73,75,5.14,ES,1685112646
392,abadeh,31.1608,52.6506,23.15,27,94,2.46,IR,1685112647
393,tromso,69.6496,18.957,2.99,87,75,5.66,NO,1685112647
394,aur,8.1499,171.1687,28.18,78,100,8.29,MH,1685112647
395,fokino,42.9836,132.4047,11.04,85,48,3.21,RU,1685112647
396,bubaque,11.2833,-15.8333,27.09,79,100,4.19,GW,1685112647
397,vadso,70.0744,29.7487,9.49,57,40,6.17,NO,1685112648
398,terrasson-lavilledieu,45.1301,1.3014,24.64,44,16,0.93,FR,1685112648
399,broome,42.2506,-75.833,17.57,47,0,4.63,US,1685112648
400,akrehamn,59.2667,5.1833,12.14,71,20,5.14,NO,1685112648
401,awjilah,29.1081,21.2869,33.89,15,1,9.69,LY,1685112648
402,emerald,-23.5333,148.1667,11.86,47,0,6.77,AU,1685112648
403,st. john's,47.5649,-52.7093,7.6,96,100,10.29,CA,1685112608
404,ixtapa,20.7,-105.2,23.57,53,40,1.54,MX,1685112649
405,lanark,55.6737,-3.7817,19.77,62,63,1.89,GB,1685112649
406,devils lake,48.1128,-98.8651,24.06,62,0,8.23,US,1685112397
407,makokou,0.5738,12.8642,28.13,69,100,1.43,GA,1685112649
408,pass christian,30.3158,-89.2475,25.63,59,0,3.09,US,1685112649
409,arawa,-6.2132,155.5367,24.88,92,100,1.38,PG,1685112649
410,saint-pierre,-21.3393,55.4781,23.82,60,0,6.69,RE,1685112650
411,soe,-9.8607,124.284,15.4,86,94,1.86,ID,1685112655
412,madinat ash shamal,26.1293,51.2009,32.17,50,0,3.25,QA,1685112655
413,queenstown,-31.8976,26.8753,10.28,36,21,3.69,ZA,1685112655
414,mil'kovo,55.6078,37.7956,25.22,53,67,2.08,RU,1685112655
415,margaret river,-33.95,115.0667,10.98,76,0,1.88,AU,1685112655
416,ocean shores,46.9737,-124.1563,12.0,96,100,1.54,US,1685112632
417,hasaki,35.7333,140.8333,17.9,72,100,4.99,JP,1685112656
418,mchinji,-13.7984,32.8802,21.58,45,3,1.37,MW,1685112656
419,princeville,45.7668,-61.2985,9.81,87,100,2.24,CA,1685112656
420,yeppoon,-23.1333,150.7333,16.88,50,0,4.9,AU,1685112656
421,tres palos,18.1833,-101.6167,28.87,53,88,1.14,MX,1685112656
422,lata,40.1629,-8.3327,24.16,48,54,6.49,PT,1685112656
423,boromo,11.75,-2.9333,40.28,19,87,2.76,BF,1685112656
424,nova vicosa,-17.8919,-39.3719,25.67,62,33,4.95,BR,1685112656
425,langsa,4.4683,97.9683,24.1,96,100,1.13,ID,1685112657
426,kumi,36.1136,128.336,21.82,87,100,1.14,KR,1685112657
427,forster,-32.1667,152.5167,10.77,88,100,5.21,AU,1685112657
428,puruandiro,20.0833,-101.5,25.11,40,76,0.92,MX,1685112657
429,areado,-21.3586,-46.1456,22.41,51,2,3.01,BR,1685112657
430,mejit,10.2753,170.8646,27.68,80,100,8.31,MH,1685112657
431,chadan,51.2833,91.5833,8.07,61,100,1.72,RU,1685112657
432,palmer,42.1584,-72.3287,19.69,39,1,1.34,US,1685112657
433,slave lake,55.2834,-114.769,9.99,87,100,2.57,CA,1685112657
434,bobo-dioulasso,11.1771,-4.2979,35.25,34,74,2.57,BF,1685112658
435,madang,-5.2246,145.7966,25.04,85,92,0.92,PG,1685112658
436,cambridge,43.3601,-80.3127,18.39,39,0,2.06,CA,1685112658
437,mhamid,29.82,-5.72,32.68,13,87,10.31,MA,1685112658
438,luwuk,-0.9516,122.7875,24.87,89,95,1.92,ID,1685112658
439,siwa oasis,29.2041,25.5195,36.47,9,6,8.75,EG,1685112658
440,east hill-meridian,47.4105,-122.1737,17.87,77,0,3.09,US,1685112658
441,tabou,4.423,-7.3528,28.64,72,99,2.81,CI,1685112658
442,mezhdurechensk,53.6942,88.0603,7.19,63,96,1.56,RU,1685112658
443,gislaved,57.3044,13.5408,17.84,24,7,0.45,SE,1685112658
444,bitam,2.076,11.5007,24.9,95,100,0.39,GA,1685112659
445,port alfred,-33.5906,26.891,16.77,67,11,2.24,ZA,1685112659
446,lieksa,63.3167,30.0167,8.81,66,100,4.46,FI,1685112659
447,gafour,36.3205,9.3242,27.21,40,97,4.54,TN,1685112659
448,ramanuj ganj,23.8,83.7,29.67,33,15,4.95,IN,1685112368
449,suva,-18.1416,178.4415,17.71,94,20,2.06,FJ,1685112659
450,hats'avan,39.4641,45.9705,16.78,62,37,2.56,AM,1685112659
451,puerto el triunfo,13.2833,-88.55,29.51,77,100,1.28,SV,1685112660
452,panama city beach,30.1766,-85.8055,25.61,66,0,6.17,US,1685112629
453,rabo de peixe,37.8,-25.5833,19.73,68,40,6.17,PT,1685112660
454,cold springs,39.6802,-119.9766,12.67,79,75,2.06,US,1685112660
455,pea ridge,38.414,-82.3199,21.64,56,1,2.24,US,1685112660
456,chifeng,42.2683,118.9636,19.84,41,35,2.75,CN,1685112660
457,holualoa,19.6228,-155.9522,20.91,89,40,1.54,US,1685112660
458,padang,-0.9492,100.3543,26.03,87,97,0.95,ID,1685112660
459,andi,42.7836,46.2617,15.58,78,97,0.98,RU,1685112661
460,pionerskiy,54.9508,20.2275,13.91,65,88,6.27,RU,1685112661
461,mombetsu,44.3525,143.3525,13.3,73,100,1.45,JP,1685112661
462,anchau,10.9597,8.3916,34.66,32,78,0.75,NG,1685112661
463,bishoftu,8.75,38.9833,23.13,48,87,6.47,ET,1685112661
464,sulphur,30.2366,-93.3774,26.99,71,0,3.6,US,1685112662
465,sombrio,-29.1139,-49.6167,26.63,52,18,3.48,BR,1685112662
466,broken hill,-31.95,141.4333,9.26,61,35,2.56,AU,1685112665
467,formosa do rio preto,-11.0483,-45.1931,30.6,41,18,4.23,BR,1685112666
468,panevezys,55.7333,24.35,18.64,55,62,5.74,LT,1685112667
469,katsuren-haebaru,26.3369,127.8719,24.01,78,20,0.0,JP,1685112668
470,maxixe,-23.8597,35.3472,24.9,69,20,6.17,MZ,1685112668
471,qamdo,31.1667,97.2333,7.96,41,2,3.04,CN,1685112669
472,arish,31.1316,33.7984,25.21,53,100,7.42,EG,1685112670
473,kushima,31.4583,131.2333,20.3,89,86,2.85,JP,1685112671
474,kharp,66.8014,65.8081,23.74,46,55,5.3,RU,1685112677
475,novyy urgal,51.0736,132.5642,10.77,88,83,3.35,RU,1685112677
476,tallulah,32.4085,-91.1868,25.03,68,0,2.57,US,1685112678
477,ust'-ilimsk,58.0006,102.6619,6.72,84,100,1.6,RU,1685112678
478,huarmey,-10.0681,-78.1522,23.85,73,30,4.05,PE,1685112678
479,nuuk,64.1835,-51.7216,0.34,74,100,12.35,GL,1685112660
480,rada tilly,-45.9333,-67.5333,6.27,45,0,8.23,AR,1685112679
481,marquette,46.5333,-87.6335,19.53,28,23,1.34,US,1685112679
482,carinhanha,-14.3047,-43.765,30.23,38,77,3.63,BR,1685112680
483,codrington,-38.2667,141.9667,10.68,81,100,4.33,AU,1685112680
484,tidjikja,18.5564,-11.4271,35.18,23,100,3.58,MR,1685112680
485,aykhal,66.0,111.5,0.86,98,100,1.95,RU,1685112681
486,dawei,14.0833,98.2,26.71,85,14,1.0,MM,1685112681
487,choyr,46.3611,108.3611,11.79,37,100,5.88,MN,1685112682
488,lazaro cardenas,17.9583,-102.2,29.36,65,98,2.92,MX,1685112682
489,qacha's nek,-30.1154,28.6894,9.32,24,32,1.84,LS,1685112682
490,uliastay,47.7417,96.8444,7.94,56,93,3.3,MN,1685112683
491,medenine,33.355,10.5055,23.7,44,5,8.65,TN,1685112705
492,kristiansund,63.1115,7.732,13.03,66,75,11.32,NO,1685112705
493,chudovo,59.1167,31.6833,18.96,27,22,3.64,RU,1685112705
494,sarh,9.1429,18.3923,29.95,51,20,3.09,TD,1685112706
495,ambatolampy,-19.3833,47.4167,11.66,93,35,2.18,MG,1685112706
496,eyl,7.9803,49.8164,29.05,70,100,8.18,SO,1685112706
497,nanao,37.05,136.9667,19.07,94,100,0.82,JP,1685112707
498,rudnichnyy,59.617,52.4703,21.29,50,100,5.86,RU,1685112707
499,illizi,26.4833,8.4667,32.89,11,46,5.48,DZ,1685112707
500,palu,-0.8917,119.8707,25.33,92,100,0.31,ID,1685112708
501,kievka,50.2619,71.5514,14.55,57,35,5.0,KZ,1685112708
502,sao vicente,-23.9631,-46.3919,28.48,61,20,1.87,BR,1685112708
503,baracoa,20.3467,-74.4958,30.25,59,0,1.68,CU,1685112708
504,vanimo,-2.6741,141.3028,26.24,88,48,1.38,PG,1685112708
505,guledagudda,16.05,75.8,35.61,24,30,3.86,IN,1685112708
506,jumla,29.2747,82.1838,10.07,90,89,0.22,NP,1685112708
507,oudtshoorn,-33.5907,22.2014,15.2,51,20,0.95,ZA,1685112709
508,ouro preto do oeste,-10.7481,-62.2158,27.72,84,28,0.96,BR,1685112697
509,cabo san lucas,22.8909,-109.9124,25.9,59,93,5.32,MX,1685112709
510,capitan bado,-23.2667,-55.5333,25.16,58,19,7.47,PY,1685112709
511,boca do acre,-8.7522,-67.3978,25.96,84,89,0.93,BR,1685112697
512,las heras,-46.5419,-68.9359,3.87,43,100,6.72,AR,1685112709
513,puerto baquerizo moreno,-0.9,-89.6,25.55,84,92,4.66,EC,1685112709
514,la palma,33.8464,-118.0467,17.12,84,100,2.57,US,1685112709
515,luckeesarai,25.1833,86.0833,29.61,50,31,1.5,IN,1685112709
516,luau,-10.7073,22.2247,30.21,31,6,1.31,AO,1685112710
517,vila franca do campo,37.7167,-25.4333,20.23,76,58,4.21,PT,1685112710
518,singaraja,-8.112,115.0882,25.58,81,18,1.87,ID,1685112494
519,lexington,37.9887,-84.4777,17.96,57,0,4.12,US,1685112695
520,harstad,68.799,16.5293,4.66,99,100,5.81,NO,1685112710
521,alpena,45.0617,-83.4327,17.84,32,0,1.54,US,1685112710
522,nizhniy kuranakh,58.8353,125.4869,6.61,57,100,4.29,RU,1685112710
523,road town,18.4167,-64.6167,30.02,70,40,4.12,VG,1685112420
524,lalgola,24.4167,88.25,27.57,65,100,4.84,IN,1685112710
525,kralendijk,12.15,-68.2667,29.99,74,40,6.69,BQ,1685112582
526,bamboo flat,11.7,92.7167,28.94,77,12,4.09,IN,1685112711
527,haradok,55.4624,29.9816,22.06,42,30,3.96,BY,1685112711
528,port angeles,48.1181,-123.4307,18.69,79,0,2.06,US,1685112438
529,alofi,-19.0595,-169.9187,19.94,94,100,2.57,NU,1685112711
530,lensk,60.7253,114.9278,7.12,62,74,1.38,RU,1685112685
531,vrangel',42.7297,133.0839,11.03,88,49,1.56,RU,1685112711
532,maughold,54.2988,-4.3184,16.57,70,46,2.16,IM,1685112711
533,boende,-0.2167,20.8667,32.35,52,94,0.94,CD,1685112711
534,merizo village,13.2658,144.6691,27.22,88,100,5.95,GU,1685112712
535,jacksonville,30.3322,-81.6556,22.22,83,100,8.23,US,1685112712
536,mtsamboro,-12.6998,45.0689,26.62,64,24,3.97,YT,1685112712
537,smara,26.7384,-11.6719,29.52,29,37,5.8,EH,1685112712
538,kapa'a,22.0752,-159.319,23.18,77,40,6.17,US,1685112712
539,dailekh,28.8333,81.6667,17.37,78,16,1.64,NP,1685112712
540,el quebrachal,-25.2833,-64.0667,27.86,59,100,4.7,AR,1685112712
541,kuta,-8.7233,115.1723,25.97,88,20,3.13,ID,1685112717
542,saint-philippe,-21.3585,55.7679,23.77,85,100,5.07,RE,1685112718
543,villa gesell,-37.2639,-56.973,15.03,75,100,4.27,AR,1685112718
544,pervomayskaya,43.4033,45.5261,25.89,57,75,3.0,RU,1685112718
545,island harbour,50.724,-1.2758,21.02,59,3,7.32,GB,1685112718
546,yanykurgan,43.915,67.2481,26.13,18,0,2.32,KZ,1685112718
547,soio,-6.1349,12.3689,26.73,77,84,4.69,AO,1685112718
548,rumbek,6.802,29.6912,37.94,26,96,3.45,SS,1685112718
549,rio gallegos,-51.6226,-69.2181,0.03,86,0,8.23,AR,1685112692
550,brisas de zicatela,15.8369,-97.0419,28.86,70,99,1.33,MX,1685112718
551,tubarjal,30.4999,38.216,32.96,8,45,5.62,SA,1685112719
552,canmore,51.0834,-115.3521,8.23,76,44,1.54,CA,1685112449
553,garachico,28.7781,-17.7646,20.06,64,75,1.54,ES,1685112719
554,alo,7.4178,6.7371,36.2,43,17,2.25,NG,1685112719
555,puerto aysen,-45.4,-72.7,3.02,93,75,0.0,CL,1685112420
556,cortez,37.3489,-108.5859,19.28,50,0,1.54,US,1685112719
557,samarinda,-0.5,117.15,23.93,94,99,0.85,ID,1685112719
558,capo d'orlando,38.1435,14.7305,22.45,74,42,3.03,IT,1685112719
559,prado,-17.3411,-39.2208,26.04,62,34,4.17,BR,1685112719
560,tobelo,1.7284,128.0095,26.0,81,100,1.94,ID,1685112719
561,qui nhon,13.7667,109.2333,25.93,86,84,1.47,VN,1685112614
562,mahina,-17.5065,-149.489,24.87,78,20,1.03,PF,1685112720
563,newcastle,-32.9272,151.7765,12.62,69,61,4.12,AU,1685112720
564,the pas,53.8251,-101.2541,11.01,100,100,1.54,CA,1685112720
565,vilyuysk,63.7553,121.6247,3.62,64,25,1.71,RU,1685112720
566,gizo,-8.103,156.8419,27.46,78,90,2.15,SB,1685112720
567,klaksvik,62.2266,-6.589,9.51,94,100,7.22,FO,1685112720
568,alta,69.9689,23.2717,6.59,61,75,6.69,NO,1685112720
569,pechora,65.1472,57.2244,20.61,66,100,7.13,RU,1685112720
570,kill devil hills,36.0307,-75.676,18.01,78,100,7.2,US,1685112720
571,knyaze-volkonskoye,48.4642,135.4567,13.19,95,57,3.68,RU,1685112721
572,benin city,6.335,5.6275,32.53,57,96,3.22,NG,1685112721
573,crestview,30.7621,-86.5705,24.95,65,0,3.6,US,1685112721
574,praya,14.9215,-23.5087,29.3,48,75,9.26,CV,1685112721
575,uniao da vitoria,-26.23,-51.0864,23.7,46,63,1.98,BR,1685112721
576,tevriz,57.509,72.4042,15.25,47,100,1.57,RU,1685112722
577,ashmyany,54.425,25.9378,20.0,52,9,3.99,BY,1685112722
578,kecskemet,46.9062,19.6913,27.07,44,0,4.12,HU,1685112723
579,yasuj,30.6682,51.588,24.75,25,75,6.17,IR,1685112724
580,uzgen,40.7699,73.3007,20.16,43,5,1.69,KG,1685112724
581,lumberton,34.6182,-79.0086,19.17,29,75,5.66,US,1685112724
582,keningau,5.3378,116.1602,22.33,98,97,0.53,MY,1685112725
583,byron bay,-28.65,153.6167,13.13,67,6,6.29,AU,1685112725
584,arar,30.9753,41.0381,36.01,6,0,8.23,SA,1685112727
585,haimen,23.1935,116.6142,24.94,91,17,1.77,CN,1685112728
586,prainha,-1.8,-53.48,27.7,81,100,1.98,BR,1685112728
